{"type":"FeatureCollection","features":[{"type":"Feature","geometry":{"type":"Point","coordinates":[10.208501100000001,36.7728229,0]},"properties":{"name":"جبل الجلود","styleUrl":"#icon-960-00A800","styleHash":"-53333b0c","description":"المصدر: المجالس الجهويّة والبلديّات<br>الولاية: تونس<br>الجهة: تونس الكبرى<br>المساحة (هك): 150<br>lon: 10.208501100000001<br>lat: 36.7728229","المصدر":"المجالس الجهويّة والبلديّات","الولاية":"تونس","الجهة":"تونس الكبرى","المساحة (هك)":"150.0","lon":10.208501100000001,"lat":36.7728229}},{"type":"Feature","geometry":{"type":"Point","coordinates":[9.9611797,36.6799221,0]},"properties":{"name":"الفجة توسعة(القطب)","styleUrl":"#icon-960-00A800","styleHash":"-53333b0c","description":"المصدر: الخواص و الأقطاب و المركبات<br>الولاية: منوبة<br>الجهة: تونس الكبرى<br>المساحة (هك): 116<br>lon: 9.9611797<br>lat: 36.6799221","المصدر":"الخواص و الأقطاب و المركبات","الولاية":"منوبة","الجهة":"تونس الكبرى","المساحة (هك)":"116.0","lon":9.9611797,"lat":36.6799221}},{"type":"Feature","geometry":{"type":"Point","coordinates":[10.1179856,36.621159,0]},"properties":{"name":"المحمدية","styleUrl":"#icon-960-00A800","styleHash":"-53333b0c","description":"المصدر: الخواص و الأقطاب و المركبات<br>الولاية: بن عروس<br>الجهة: تونس الكبرى<br>المساحة (هك): 107<br>lon: 10.1179856<br>lat: 36.621159","المصدر":"الخواص و الأقطاب و المركبات","الولاية":"بن عروس","الجهة":"تونس الكبرى","المساحة (هك)":"107.0","lon":10.1179856,"lat":36.621159}},{"type":"Feature","geometry":{"type":"Point","coordinates":[10.1679343,36.7187593,0]},"properties":{"name":"المغيرة 3","styleUrl":"#icon-960-00A800","styleHash":"-53333b0c","description":"المصدر: الوكالة العقاريّة الصناعيّة<br>الولاية: بن عروس<br>الجهة: تونس الكبرى<br>المساحة (هك): 96<br>lon: 10.1679343<br>lat: 36.7187593","المصدر":"الوكالة العقاريّة الصناعيّة","الولاية":"بن عروس","الجهة":"تونس الكبرى","المساحة (هك)":"96.0","lon":10.1679343,"lat":36.7187593}},{"type":"Feature","geometry":{"type":"Point","coordinates":[10.236396,36.7568077,0]},"properties":{"name":"بن عروس","styleUrl":"#icon-960-00A800","styleHash":"-53333b0c","description":"المصدر: الوكالة العقاريّة الصناعيّة<br>الولاية: بن عروس<br>الجهة: تونس الكبرى<br>المساحة (هك): 92<br>lon: 10.236396<br>lat: 36.7568077","المصدر":"الوكالة العقاريّة الصناعيّة","الولاية":"بن عروس","الجهة":"تونس الكبرى","المساحة (هك)":"92.0","lon":10.236396,"lat":36.7568077}},{"type":"Feature","geometry":{"type":"Point","coordinates":[10.1255164,36.9922751,0]},"properties":{"name":"أريانة","styleUrl":"#icon-960-00A800","styleHash":"-53333b0c","description":"المصدر: الوكالة العقاريّة الصناعيّة<br>الولاية: أريانة<br>الجهة: تونس الكبرى<br>المساحة (هك): 91<br>lon: 10.1255164<br>lat: 36.9922751","المصدر":"الوكالة العقاريّة الصناعيّة","الولاية":"أريانة","الجهة":"تونس الكبرى","المساحة (هك)":"91.0","lon":10.1255164,"lat":36.9922751}},{"type":"Feature","geometry":{"type":"Point","coordinates":[10.1801652,36.7189314,0]},"properties":{"name":"المغيرة 2","styleUrl":"#icon-960-00A800","styleHash":"-53333b0c","description":"المصدر: الوكالة العقاريّة الصناعيّة<br>الولاية: بن عروس<br>الجهة: تونس الكبرى<br>المساحة (هك): 91<br>lon: 10.1801652<br>lat: 36.7189314","المصدر":"الوكالة العقاريّة الصناعيّة","الولاية":"بن عروس","الجهة":"تونس الكبرى","المساحة (هك)":"91.0","lon":10.1801652,"lat":36.7189314}},{"type":"Feature","geometry":{"type":"Point","coordinates":[10.2893321,36.8018011,0]},"properties":{"name":"رادس بترول","styleUrl":"#icon-960-00A800","styleHash":"-53333b0c","description":"المصدر: المجالس الجهويّة والبلديّات<br>الولاية: بن عروس<br>الجهة: تونس الكبرى<br>المساحة (هك): 88<br>lon: 10.2893321<br>lat: 36.8018011","المصدر":"المجالس الجهويّة والبلديّات","الولاية":"بن عروس","الجهة":"تونس الكبرى","المساحة (هك)":"88.0","lon":10.2893321,"lat":36.8018011}},{"type":"Feature","geometry":{"type":"Point","coordinates":[10.170938400000002,36.7139088,0]},"properties":{"name":"المغيرة 1","styleUrl":"#icon-960-00A800","styleHash":"-53333b0c","description":"المصدر: الوكالة العقاريّة الصناعيّة<br>الولاية: بن عروس<br>الجهة: تونس الكبرى<br>المساحة (هك): 75<br>lon: 10.170938400000002<br>lat: 36.7139088","المصدر":"الوكالة العقاريّة الصناعيّة","الولاية":"بن عروس","الجهة":"تونس الكبرى","المساحة (هك)":"75.0","lon":10.170938400000002,"lat":36.7139088}},{"type":"Feature","geometry":{"type":"Point","coordinates":[10.2316323,36.76364900000001,0]},"properties":{"name":"مقرين بلدية","styleUrl":"#icon-960-00A800","styleHash":"-53333b0c","description":"المصدر: المجالس الجهويّة والبلديّات<br>الولاية: بن عروس<br>الجهة: تونس الكبرى<br>المساحة (هك): 70<br>lon: 10.2316323<br>lat: 36.76364900000001","المصدر":"المجالس الجهويّة والبلديّات","الولاية":"بن عروس","الجهة":"تونس الكبرى","المساحة (هك)":"70.0","lon":10.2316323,"lat":36.76364900000001}},{"type":"Feature","geometry":{"type":"Point","coordinates":[10.3874763,36.7040828,0]},"properties":{"name":"برج السدريّة","styleUrl":"#icon-960-00A800","styleHash":"-53333b0c","description":"المصدر: الوكالة العقاريّة الصناعيّة<br>الولاية: بن عروس<br>الجهة: تونس الكبرى<br>المساحة (هك): 70<br>lon: 10.3874763<br>lat: 36.7040828","المصدر":"الوكالة العقاريّة الصناعيّة","الولاية":"بن عروس","الجهة":"تونس الكبرى","المساحة (هك)":"70.0","lon":10.3874763,"lat":36.7040828}},{"type":"Feature","geometry":{"type":"Point","coordinates":[10.0725246,36.7914161,0]},"properties":{"name":"العقبة","styleUrl":"#icon-960-00F000","styleHash":"17a954d4","description":"المصدر: الوكالة العقاريّة الصناعيّة<br>الولاية: تونس<br>الجهة: تونس الكبرى<br>المساحة (هك): 69<br>lon: 10.0725246<br>lat: 36.7914161","المصدر":"الوكالة العقاريّة الصناعيّة","الولاية":"تونس","الجهة":"تونس الكبرى","المساحة (هك)":"69.0","lon":10.0725246,"lat":36.7914161}},{"type":"Feature","geometry":{"type":"Point","coordinates":[10.2319757,36.7782402,0]},"properties":{"name":"مقرين","styleUrl":"#icon-960-00F000","styleHash":"17a954d4","description":"المصدر: الوكالة العقاريّة الصناعيّة<br>الولاية: بن عروس<br>الجهة: تونس الكبرى<br>المساحة (هك): 63<br>lon: 10.2319757<br>lat: 36.7782402","المصدر":"الوكالة العقاريّة الصناعيّة","الولاية":"بن عروس","الجهة":"تونس الكبرى","المساحة (هك)":"63.0","lon":10.2319757,"lat":36.7782402}},{"type":"Feature","geometry":{"type":"Point","coordinates":[10.2253666,36.7379291,0]},"properties":{"name":"بئر القصعة 1","styleUrl":"#icon-960-00F000","styleHash":"17a954d4","description":"المصدر: المجالس الجهويّة والبلديّات<br>الولاية: بن عروس<br>الجهة: تونس الكبرى<br>المساحة (هك): 61<br>lon: 10.2253666<br>lat: 36.7379291","المصدر":"المجالس الجهويّة والبلديّات","الولاية":"بن عروس","الجهة":"تونس الكبرى","المساحة (هك)":"61.0","lon":10.2253666,"lat":36.7379291}},{"type":"Feature","geometry":{"type":"Point","coordinates":[10.226225,36.731050700000004,0]},"properties":{"name":"بئر القصعة 2","styleUrl":"#icon-960-00F000","styleHash":"17a954d4","description":"المصدر: المجالس الجهويّة والبلديّات<br>الولاية: بن عروس<br>الجهة: تونس الكبرى<br>المساحة (هك): 60<br>lon: 10.226225<br>lat: 36.731050700000004","المصدر":"المجالس الجهويّة والبلديّات","الولاية":"بن عروس","الجهة":"تونس الكبرى","المساحة (هك)":"60.0","lon":10.226225,"lat":36.731050700000004}},{"type":"Feature","geometry":{"type":"Point","coordinates":[10.219616,36.77031860000001,0]},"properties":{"name":"مقرين الرياض","styleUrl":"#icon-960-00F000","styleHash":"17a954d4","description":"المصدر: المجالس الجهويّة والبلديّات<br>الولاية: بن عروس<br>الجهة: تونس الكبرى<br>المساحة (هك): 60<br>lon: 10.219616<br>lat: 36.77031860000001","المصدر":"المجالس الجهويّة والبلديّات","الولاية":"بن عروس","الجهة":"تونس الكبرى","المساحة (هك)":"60.0","lon":10.219616,"lat":36.77031860000001}},{"type":"Feature","geometry":{"type":"Point","coordinates":[10.2179606,36.896544,0]},"properties":{"name":"شطرانة","styleUrl":"#icon-960-00F000","styleHash":"17a954d4","description":"المصدر: الوكالة العقاريّة الصناعيّة<br>الولاية: أريانة<br>الجهة: تونس الكبرى<br>المساحة (هك): 58<br>lon: 10.2179606<br>lat: 36.896544","المصدر":"الوكالة العقاريّة الصناعيّة","الولاية":"أريانة","الجهة":"تونس الكبرى","المساحة (هك)":"58.0","lon":10.2179606,"lat":36.896544}},{"type":"Feature","geometry":{"type":"Point","coordinates":[10.2785554,36.7691233,0]},"properties":{"name":"رادس","styleUrl":"#icon-960-00F000","styleHash":"17a954d4","description":"المصدر: الوكالة العقاريّة الصناعيّة<br>الولاية: بن عروس<br>الجهة: تونس الكبرى<br>المساحة (هك): 52<br>lon: 10.2785554<br>lat: 36.7691233","المصدر":"الوكالة العقاريّة الصناعيّة","الولاية":"بن عروس","الجهة":"تونس الكبرى","المساحة (هك)":"52.0","lon":10.2785554,"lat":36.7691233}},{"type":"Feature","geometry":{"type":"Point","coordinates":[10.2313963,36.7515383,0]},"properties":{"name":"بن عروس الجنوبية","styleUrl":"#icon-960-00F000","styleHash":"17a954d4","description":"المصدر: المجالس الجهويّة والبلديّات<br>الولاية: بن عروس<br>الجهة: تونس الكبرى<br>المساحة (هك): 50<br>lon: 10.2313963<br>lat: 36.7515383","المصدر":"المجالس الجهويّة والبلديّات","الولاية":"بن عروس","الجهة":"تونس الكبرى","المساحة (هك)":"50.0","lon":10.2313963,"lat":36.7515383}},{"type":"Feature","geometry":{"type":"Point","coordinates":[10.1066468,36.8957277,0]},"properties":{"name":"البكري","styleUrl":"#icon-960-00F000","styleHash":"17a954d4","description":"المصدر: الخواص و الأقطاب و المركبات<br>الولاية: أريانة<br>الجهة: تونس الكبرى<br>المساحة (هك): 50<br>lon: 10.1066468<br>lat: 36.8957277","المصدر":"الخواص و الأقطاب و المركبات","الولاية":"أريانة","الجهة":"تونس الكبرى","المساحة (هك)":"50.0","lon":10.1066468,"lat":36.8957277}},{"type":"Feature","geometry":{"type":"Point","coordinates":[10.116165900000002,36.8216185,0]},"properties":{"name":"قصر سعيد","styleUrl":"#icon-960-00F000","styleHash":"17a954d4","description":"المصدر: الوكالة العقاريّة الصناعيّة<br>الولاية: منوبة<br>الجهة: تونس الكبرى<br>المساحة (هك): 49<br>lon: 10.116165900000002<br>lat: 36.8216185","المصدر":"الوكالة العقاريّة الصناعيّة","الولاية":"منوبة","الجهة":"تونس الكبرى","المساحة (هك)":"49.0","lon":10.116165900000002,"lat":36.8216185}},{"type":"Feature","geometry":{"type":"Point","coordinates":[10.2216382,36.7321972,0]},"properties":{"name":"بئر القصعة 2","styleUrl":"#icon-960-00F000","styleHash":"17a954d4","description":"المصدر: الوكالة العقاريّة الصناعيّة<br>الولاية: بن عروس<br>الجهة: تونس الكبرى<br>المساحة (هك): 47<br>lon: 10.2216382<br>lat: 36.7321972","المصدر":"الوكالة العقاريّة الصناعيّة","الولاية":"بن عروس","الجهة":"تونس الكبرى","المساحة (هك)":"47.0","lon":10.2216382,"lat":36.7321972}},{"type":"Feature","geometry":{"type":"Point","coordinates":[10.0766183,36.7952196,0]},"properties":{"name":"العقبة 2","styleUrl":"#icon-960-00F000","styleHash":"17a954d4","description":"المصدر: الخواص و الأقطاب و المركبات<br>الولاية: تونس<br>الجهة: تونس الكبرى<br>المساحة (هك): 45<br>lon: 10.0766183<br>lat: 36.7952196","المصدر":"الخواص و الأقطاب و المركبات","الولاية":"تونس","الجهة":"تونس الكبرى","المساحة (هك)":"45.0","lon":10.0766183,"lat":36.7952196}},{"type":"Feature","geometry":{"type":"Point","coordinates":[10.2996484,36.835913,0]},"properties":{"name":"حلق الوادي 2","styleUrl":"#icon-960-00F000","styleHash":"17a954d4","description":"المصدر: المجالس الجهويّة والبلديّات<br>الولاية: تونس<br>الجهة: تونس الكبرى<br>المساحة (هك): 42<br>lon: 10.2996484<br>lat: 36.835913","المصدر":"المجالس الجهويّة والبلديّات","الولاية":"تونس","الجهة":"تونس الكبرى","المساحة (هك)":"42.0","lon":10.2996484,"lat":36.835913}},{"type":"Feature","geometry":{"type":"Point","coordinates":[10.230817,36.7596098,0]},"properties":{"name":"بن عروس الشمالية","styleUrl":"#icon-960-00F000","styleHash":"17a954d4","description":"المصدر: المجالس الجهويّة والبلديّات<br>الولاية: بن عروس<br>الجهة: تونس الكبرى<br>المساحة (هك): 40<br>lon: 10.230817<br>lat: 36.7596098","المصدر":"المجالس الجهويّة والبلديّات","الولاية":"بن عروس","الجهة":"تونس الكبرى","المساحة (هك)":"40.0","lon":10.230817,"lat":36.7596098}},{"type":"Feature","geometry":{"type":"Point","coordinates":[10.4280527,36.712598,0]},"properties":{"name":"برج السدرية","styleUrl":"#icon-960-38FF38","styleHash":"-44d79f2c","description":"المصدر: الخواص و الأقطاب و المركبات<br>الولاية: بن عروس<br>الجهة: تونس الكبرى<br>المساحة (هك): 20<br>lon: 10.4280527<br>lat: 36.712598","المصدر":"الخواص و الأقطاب و المركبات","الولاية":"بن عروس","الجهة":"تونس الكبرى","المساحة (هك)":"20.0","lon":10.4280527,"lat":36.712598}},{"type":"Feature","geometry":{"type":"Point","coordinates":[10.3054039,36.7360892,0]},"properties":{"name":"الزهراء","styleUrl":"#icon-960-38FF38","styleHash":"-44d79f2c","description":"المصدر: المجالس الجهويّة والبلديّات<br>الولاية: بن عروس<br>الجهة: تونس الكبرى<br>المساحة (هك): 18<br>lon: 10.3054039<br>lat: 36.7360892","المصدر":"المجالس الجهويّة والبلديّات","الولاية":"بن عروس","الجهة":"تونس الكبرى","المساحة (هك)":"18.0","lon":10.3054039,"lat":36.7360892}},{"type":"Feature","geometry":{"type":"Point","coordinates":[10.266522500000002,36.7684282,0]},"properties":{"name":"رادس بلدية","styleUrl":"#icon-960-38FF38","styleHash":"-44d79f2c","description":"المصدر: المجالس الجهويّة والبلديّات<br>الولاية: بن عروس<br>الجهة: تونس الكبرى<br>المساحة (هك): 18<br>lon: 10.266522500000002<br>lat: 36.7684282","المصدر":"المجالس الجهويّة والبلديّات","الولاية":"بن عروس","الجهة":"تونس الكبرى","المساحة (هك)":"18.0","lon":10.266522500000002,"lat":36.7684282}},{"type":"Feature","geometry":{"type":"Point","coordinates":[10.305839400000002,36.8347398,0]},"properties":{"name":"حلق الوادي","styleUrl":"#icon-960-80FF80","styleHash":"-10607f6c","description":"المصدر: الوكالة العقاريّة الصناعيّة<br>الولاية: تونس<br>الجهة: تونس الكبرى<br>المساحة (هك): 14<br>lon: 10.305839400000002<br>lat: 36.8347398","المصدر":"الوكالة العقاريّة الصناعيّة","الولاية":"تونس","الجهة":"تونس الكبرى","المساحة (هك)":"14.0","lon":10.305839400000002,"lat":36.8347398}},{"type":"Feature","geometry":{"type":"Point","coordinates":[9.9373934,36.8666955,0]},"properties":{"name":"الجديدة","styleUrl":"#icon-960-80FF80","styleHash":"-10607f6c","description":"المصدر: المجالس الجهويّة والبلديّات<br>الولاية: منوبة<br>الجهة: تونس الكبرى<br>المساحة (هك): 12<br>lon: 9.9373934<br>lat: 36.8666955","المصدر":"المجالس الجهويّة والبلديّات","الولاية":"منوبة","الجهة":"تونس الكبرى","المساحة (هك)":"12.0","lon":9.9373934,"lat":36.8666955}},{"type":"Feature","geometry":{"type":"Point","coordinates":[10.1333064,37.0604621,0]},"properties":{"name":"قلعة الأندلس","styleUrl":"#icon-960-80FF80","styleHash":"-10607f6c","description":"المصدر: الوكالة العقاريّة الصناعيّة<br>الولاية: أريانة<br>الجهة: تونس الكبرى<br>المساحة (هك): 10<br>lon: 10.1333064<br>lat: 37.0604621","المصدر":"الوكالة العقاريّة الصناعيّة","الولاية":"أريانة","الجهة":"تونس الكبرى","المساحة (هك)":"10.0","lon":10.1333064,"lat":37.0604621}},{"type":"Feature","geometry":{"type":"Point","coordinates":[10.2262733,36.7363245,0]},"properties":{"name":"بئر القصعة 1","styleUrl":"#icon-960-80FF80","styleHash":"-10607f6c","description":"المصدر: الوكالة العقاريّة الصناعيّة<br>الولاية: بن عروس<br>الجهة: تونس الكبرى<br>المساحة (هك): 8<br>lon: 10.2262733<br>lat: 36.7363245","المصدر":"الوكالة العقاريّة الصناعيّة","الولاية":"بن عروس","الجهة":"تونس الكبرى","المساحة (هك)":"8.0","lon":10.2262733,"lat":36.7363245}},{"type":"Feature","geometry":{"type":"Point","coordinates":[9.9564029,36.6816562,0]},"properties":{"name":"الفجة","styleUrl":"#icon-960-80FF80","styleHash":"-10607f6c","description":"المصدر: المجالس الجهويّة والبلديّات<br>الولاية: منوبة<br>الجهة: تونس الكبرى<br>المساحة (هك): 6<br>lon: 9.9564029<br>lat: 36.6816562","المصدر":"المجالس الجهويّة والبلديّات","الولاية":"منوبة","الجهة":"تونس الكبرى","المساحة (هك)":"6.0","lon":9.9564029,"lat":36.6816562}},{"type":"Feature","geometry":{"type":"Point","coordinates":[9.9728632,36.7507827,0]},"properties":{"name":"سيدي علي الحطاب","styleUrl":"#icon-960-80FF80","styleHash":"-10607f6c","description":"المصدر: الوكالة العقاريّة الصناعيّة<br>الولاية: منوبة<br>الجهة: تونس الكبرى<br>المساحة (هك): 5<br>lon: 9.9728632<br>lat: 36.7507827","المصدر":"الوكالة العقاريّة الصناعيّة","الولاية":"منوبة","الجهة":"تونس الكبرى","المساحة (هك)":"5.0","lon":9.9728632,"lat":36.7507827}},{"type":"Feature","geometry":{"type":"Point","coordinates":[10.0093738,36.7514475,0]},"properties":{"name":"المرناقيّة","styleUrl":"#icon-960-80FF80","styleHash":"-10607f6c","description":"المصدر: الوكالة العقاريّة الصناعيّة<br>الولاية: منوبة<br>الجهة: تونس الكبرى<br>المساحة (هك): 4<br>lon: 10.0093738<br>lat: 36.7514475","المصدر":"الوكالة العقاريّة الصناعيّة","الولاية":"منوبة","الجهة":"تونس الكبرى","المساحة (هك)":"4.0","lon":10.0093738,"lat":36.7514475}},{"type":"Feature","geometry":{"type":"Point","coordinates":[10.1973346,36.3609575,0]},"properties":{"name":"الزريبة 4 (قسط أول)","styleUrl":"#icon-960-00F000","styleHash":"17a954d4","description":"المصدر: الوكالة العقاريّة الصناعيّة<br>الولاية: زغوان<br>الجهة: الشريطان الوسيط والداخلي<br>المساحة (هك): 50<br>lon: 10.1973346<br>lat: 36.3609575","المصدر":"الوكالة العقاريّة الصناعيّة","الولاية":"زغوان","الجهة":"الشريطان الوسيط والداخلي","المساحة (هك)":"50.0","lon":10.1973346,"lat":36.3609575}},{"type":"Feature","geometry":{"type":"Point","coordinates":[10.1464305,35.807861,0]},"properties":{"name":"السبيخة 1","styleUrl":"#icon-960-00F000","styleHash":"17a954d4","description":"المصدر: الوكالة العقاريّة الصناعيّة<br>الولاية: القيروان<br>الجهة: الشريطان الوسيط والداخلي<br>المساحة (هك): 50<br>lon: 10.1464305<br>lat: 35.807861","المصدر":"الوكالة العقاريّة الصناعيّة","الولاية":"القيروان","الجهة":"الشريطان الوسيط والداخلي","المساحة (هك)":"50.0","lon":10.1464305,"lat":35.807861}},{"type":"Feature","geometry":{"type":"Point","coordinates":[10.1460937,36.4087907,0]},"properties":{"name":"زغوان","styleUrl":"#icon-960-00F000","styleHash":"17a954d4","description":"المصدر: المجالس الجهويّة والبلديّات<br>الولاية: زغوان<br>الجهة: الشريطان الوسيط والداخلي<br>المساحة (هك): 40<br>lon: 10.1460937<br>lat: 36.4087907","المصدر":"المجالس الجهويّة والبلديّات","الولاية":"زغوان","الجهة":"الشريطان الوسيط والداخلي","المساحة (هك)":"40.0","lon":10.1460937,"lat":36.4087907}},{"type":"Feature","geometry":{"type":"Point","coordinates":[8.7961691,36.5695675,0]},"properties":{"name":"جندوبة الإرتياح 1","styleUrl":"#icon-960-38FF38","styleHash":"-44d79f2c","description":"المصدر: الوكالة العقاريّة الصناعيّة<br>الولاية: جندوبة<br>الجهة: الشريطان الوسيط والداخلي<br>المساحة (هك): 31<br>lon: 8.7961691<br>lat: 36.5695675","المصدر":"الوكالة العقاريّة الصناعيّة","الولاية":"جندوبة","الجهة":"الشريطان الوسيط والداخلي","المساحة (هك)":"31.0","lon":8.7961691,"lat":36.5695675}},{"type":"Feature","geometry":{"type":"Point","coordinates":[8.6993221,36.1599094,0]},"properties":{"name":"الكاف","styleUrl":"#icon-960-38FF38","styleHash":"-44d79f2c","description":"المصدر: المجالس الجهويّة والبلديّات<br>الولاية: الكاف<br>الجهة: الشريطان الوسيط والداخلي<br>المساحة (هك): 30<br>lon: 8.6993221<br>lat: 36.1599094","المصدر":"المجالس الجهويّة والبلديّات","الولاية":"الكاف","الجهة":"الشريطان الوسيط والداخلي","المساحة (هك)":"30.0","lon":8.6993221,"lat":36.1599094}},{"type":"Feature","geometry":{"type":"Point","coordinates":[9.2071986,36.7354345,0]},"properties":{"name":"باجة بوتفاحة","styleUrl":"#icon-960-38FF38","styleHash":"-44d79f2c","description":"المصدر: الوكالة العقاريّة الصناعيّة<br>الولاية: باجة<br>الجهة: الشريطان الوسيط والداخلي<br>المساحة (هك): 29<br>lon: 9.2071986<br>lat: 36.7354345","المصدر":"الوكالة العقاريّة الصناعيّة","الولاية":"باجة","الجهة":"الشريطان الوسيط والداخلي","المساحة (هك)":"29.0","lon":9.2071986,"lat":36.7354345}},{"type":"Feature","geometry":{"type":"Point","coordinates":[10.5206017,34.7262563,0]},"properties":{"name":"المحرس","styleUrl":"#icon-960-38FF38","styleHash":"-44d79f2c","description":"المصدر: المجالس الجهويّة والبلديّات<br>الولاية: صفاقس<br>الجهة: الشريطان الوسيط والداخلي<br>المساحة (هك): 29<br>lon: 10.5206017<br>lat: 34.7262563","المصدر":"المجالس الجهويّة والبلديّات","الولاية":"صفاقس","الجهة":"الشريطان الوسيط والداخلي","المساحة (هك)":"29.0","lon":10.5206017,"lat":34.7262563}},{"type":"Feature","geometry":{"type":"Point","coordinates":[9.6581344,36.3475061,0]},"properties":{"name":"بوعرادة 2","styleUrl":"#icon-960-38FF38","styleHash":"-44d79f2c","description":"المصدر: الوكالة العقاريّة الصناعيّة<br>الولاية: سليانة<br>الجهة: الشريطان الوسيط والداخلي<br>المساحة (هك): 27<br>lon: 9.6581344<br>lat: 36.3475061","المصدر":"الوكالة العقاريّة الصناعيّة","الولاية":"سليانة","الجهة":"الشريطان الوسيط والداخلي","المساحة (هك)":"27.0","lon":9.6581344,"lat":36.3475061}},{"type":"Feature","geometry":{"type":"Point","coordinates":[10.1146694,35.698396,0]},"properties":{"name":"القيروان 2","styleUrl":"#icon-960-38FF38","styleHash":"-44d79f2c","description":"المصدر: الوكالة العقاريّة الصناعيّة<br>الولاية: القيروان<br>الجهة: الشريطان الوسيط والداخلي<br>المساحة (هك): 26<br>lon: 10.1146694<br>lat: 35.698396","المصدر":"الوكالة العقاريّة الصناعيّة","الولاية":"القيروان","الجهة":"الشريطان الوسيط والداخلي","المساحة (هك)":"26.0","lon":10.1146694,"lat":35.698396}},{"type":"Feature","geometry":{"type":"Point","coordinates":[9.2014908,36.732941,0]},"properties":{"name":"باجة الشماليّة","styleUrl":"#icon-960-38FF38","styleHash":"-44d79f2c","description":"المصدر: الوكالة العقاريّة الصناعيّة<br>الولاية: باجة<br>الجهة: الشريطان الوسيط والداخلي<br>المساحة (هك): 26<br>lon: 9.2014908<br>lat: 36.732941","المصدر":"الوكالة العقاريّة الصناعيّة","الولاية":"باجة","الجهة":"الشريطان الوسيط والداخلي","المساحة (هك)":"26.0","lon":9.2014908,"lat":36.732941}},{"type":"Feature","geometry":{"type":"Point","coordinates":[10.0059649,35.7100345,0]},"properties":{"name":"القيروان طريق الباطن","styleUrl":"#icon-960-38FF38","styleHash":"-44d79f2c","description":"المصدر: المجالس الجهويّة والبلديّات<br>الولاية: القيروان<br>الجهة: الشريطان الوسيط والداخلي<br>المساحة (هك): 25<br>lon: 10.0059649<br>lat: 35.7100345","المصدر":"المجالس الجهويّة والبلديّات","الولاية":"القيروان","الجهة":"الشريطان الوسيط والداخلي","المساحة (هك)":"25.0","lon":10.0059649,"lat":35.7100345}},{"type":"Feature","geometry":{"type":"Point","coordinates":[10.7627298,34.7492574,0]},"properties":{"name":"عقارب","styleUrl":"#icon-960-38FF38","styleHash":"-44d79f2c","description":"المصدر: المجالس الجهويّة والبلديّات<br>الولاية: صفاقس<br>الجهة: الشريطان الوسيط والداخلي<br>المساحة (هك): 22<br>lon: 10.7627298<br>lat: 34.7492574","المصدر":"المجالس الجهويّة والبلديّات","الولاية":"صفاقس","الجهة":"الشريطان الوسيط والداخلي","المساحة (هك)":"22.0","lon":10.7627298,"lat":34.7492574}},{"type":"Feature","geometry":{"type":"Point","coordinates":[10.2062764,36.358005,0]},"properties":{"name":"الزريبة 2","styleUrl":"#icon-960-38FF38","styleHash":"-44d79f2c","description":"المصدر: الوكالة العقاريّة الصناعيّة<br>الولاية: زغوان<br>الجهة: الشريطان الوسيط والداخلي<br>المساحة (هك): 20<br>lon: 10.2062764<br>lat: 36.358005","المصدر":"الوكالة العقاريّة الصناعيّة","الولاية":"زغوان","الجهة":"الشريطان الوسيط والداخلي","المساحة (هك)":"20.0","lon":10.2062764,"lat":36.358005}},{"type":"Feature","geometry":{"type":"Point","coordinates":[9.1975855,36.73583,0]},"properties":{"name":"باجة 2 + توسعة","styleUrl":"#icon-960-38FF38","styleHash":"-44d79f2c","description":"المصدر: الوكالة العقاريّة الصناعيّة<br>الولاية: باجة<br>الجهة: الشريطان الوسيط والداخلي<br>المساحة (هك): 20<br>lon: 9.1975855<br>lat: 36.73583","المصدر":"الوكالة العقاريّة الصناعيّة","الولاية":"باجة","الجهة":"الشريطان الوسيط والداخلي","المساحة (هك)":"20.0","lon":9.1975855,"lat":36.73583}},{"type":"Feature","geometry":{"type":"Point","coordinates":[9.2327271,37.061700900000005,0]},"properties":{"name":"سجنان","styleUrl":"#icon-960-38FF38","styleHash":"-44d79f2c","description":"المصدر: الوكالة العقاريّة الصناعيّة<br>الولاية: بنزرت<br>الجهة: الشريطان الوسيط والداخلي<br>المساحة (هك): 20<br>lon: 9.2327271<br>lat: 37.061700900000005","المصدر":"الوكالة العقاريّة الصناعيّة","الولاية":"بنزرت","الجهة":"الشريطان الوسيط والداخلي","المساحة (هك)":"20.0","lon":9.2327271,"lat":37.061700900000005}},{"type":"Feature","geometry":{"type":"Point","coordinates":[8.189752,33.9574852,0]},"properties":{"name":"توزر كستيلبا","styleUrl":"#icon-960-38FF38","styleHash":"-44d79f2c","description":"المصدر: الوكالة العقاريّة الصناعيّة<br>الولاية: توزر<br>الجهة: الشريطان الوسيط والداخلي<br>المساحة (هك): 20<br>lon: 8.189752<br>lat: 33.9574852","المصدر":"الوكالة العقاريّة الصناعيّة","الولاية":"توزر","الجهة":"الشريطان الوسيط والداخلي","المساحة (هك)":"20.0","lon":8.189752,"lat":33.9574852}},{"type":"Feature","geometry":{"type":"Point","coordinates":[8.6992448,34.3865458,0]},"properties":{"name":"قفصة (العقيلة2) (القطب)","styleUrl":"#icon-960-38FF38","styleHash":"-44d79f2c","description":"المصدر: الخواص و الأقطاب و المركبات<br>الولاية: قفصة<br>الجهة: الشريطان الوسيط والداخلي<br>المساحة (هك): 20<br>lon: 8.6992448<br>lat: 34.3865458","المصدر":"الخواص و الأقطاب و المركبات","الولاية":"قفصة","الجهة":"الشريطان الوسيط والداخلي","المساحة (هك)":"20.0","lon":8.6992448,"lat":34.3865458}},{"type":"Feature","geometry":{"type":"Point","coordinates":[8.7660469,35.2117959,0]},"properties":{"name":"القصرين(قســط ثاني)","styleUrl":"#icon-960-38FF38","styleHash":"-44d79f2c","description":"المصدر: الوكالة العقاريّة الصناعيّة<br>الولاية: القصرين<br>الجهة: الشريطان الوسيط والداخلي<br>المساحة (هك): 20<br>lon: 8.7660469<br>lat: 35.2117959","المصدر":"الوكالة العقاريّة الصناعيّة","الولاية":"القصرين","الجهة":"الشريطان الوسيط والداخلي","المساحة (هك)":"20.0","lon":8.7660469,"lat":35.2117959}},{"type":"Feature","geometry":{"type":"Point","coordinates":[9.5011911,35.0453645,0]},"properties":{"name":"سيدي بوزيد + توسعة","styleUrl":"#icon-960-38FF38","styleHash":"-44d79f2c","description":"المصدر: الوكالة العقاريّة الصناعيّة‎<br>الولاية: سيدي بوزيد‎<br>الجهة: الشريطان الوسيط والداخلي‎<br>المساحة (هك): 19<br>lon: 9.5011911<br>lat: 35.0453645","المصدر":"الوكالة العقاريّة الصناعيّة‎","الولاية":"سيدي بوزيد‎","الجهة":"الشريطان الوسيط والداخلي‎","المساحة (هك)":"19.0","lon":9.5011911,"lat":35.0453645}},{"type":"Feature","geometry":{"type":"Point","coordinates":[9.1828656,36.7379967,0]},"properties":{"name":"باجة 1","styleUrl":"#icon-960-80FF80","styleHash":"-10607f6c","description":"المصدر: الوكالة العقاريّة الصناعيّة<br>الولاية: باجة<br>الجهة: الشريطان الوسيط والداخلي<br>المساحة (هك): 17<br>lon: 9.1828656<br>lat: 36.7379967","المصدر":"الوكالة العقاريّة الصناعيّة","الولاية":"باجة","الجهة":"الشريطان الوسيط والداخلي","المساحة (هك)":"17.0","lon":9.1828656,"lat":36.7379967}},{"type":"Feature","geometry":{"type":"Point","coordinates":[10.3863402,34.9616919,0]},"properties":{"name":"منزل شاكر","styleUrl":"#icon-960-80FF80","styleHash":"-10607f6c","description":"المصدر: الوكالة العقاريّة الصناعيّة<br>الولاية: صفاقس<br>الجهة: الشريطان الوسيط والداخلي<br>المساحة (هك): 17<br>lon: 10.3863402<br>lat: 34.9616919","المصدر":"الوكالة العقاريّة الصناعيّة","الولاية":"صفاقس","الجهة":"الشريطان الوسيط والداخلي","المساحة (هك)":"17.0","lon":10.3863402,"lat":34.9616919}},{"type":"Feature","geometry":{"type":"Point","coordinates":[10.5497839,35.3393576,0]},"properties":{"name":"السواسي","styleUrl":"#icon-960-80FF80","styleHash":"-10607f6c","description":"المصدر: الوكالة العقاريّة الصناعيّة<br>الولاية: المهديّة<br>الجهة: الشريطان الوسيط والداخلي<br>المساحة (هك): 16<br>lon: 10.5497839<br>lat: 35.3393576","المصدر":"الوكالة العقاريّة الصناعيّة","الولاية":"المهديّة","الجهة":"الشريطان الوسيط والداخلي","المساحة (هك)":"16.0","lon":10.5497839,"lat":35.3393576}},{"type":"Feature","geometry":{"type":"Point","coordinates":[9.602462,36.6577765,0]},"properties":{"name":"مجاز الباب 1","styleUrl":"#icon-960-80FF80","styleHash":"-10607f6c","description":"المصدر: الوكالة العقاريّة الصناعيّة<br>الولاية: باجة<br>الجهة: الشريطان الوسيط والداخلي<br>المساحة (هك): 16<br>lon: 9.602462<br>lat: 36.6577765","المصدر":"الوكالة العقاريّة الصناعيّة","الولاية":"باجة","الجهة":"الشريطان الوسيط والداخلي","المساحة (هك)":"16.0","lon":9.602462,"lat":36.6577765}},{"type":"Feature","geometry":{"type":"Point","coordinates":[10.2008457,36.3613333,0]},"properties":{"name":"الزريبة 1","styleUrl":"#icon-960-80FF80","styleHash":"-10607f6c","description":"المصدر: الوكالة العقاريّة الصناعيّة<br>الولاية: زغوان<br>الجهة: الشريطان الوسيط والداخلي<br>المساحة (هك): 15<br>lon: 10.2008457<br>lat: 36.3613333","المصدر":"الوكالة العقاريّة الصناعيّة","الولاية":"زغوان","الجهة":"الشريطان الوسيط والداخلي","المساحة (هك)":"15.0","lon":10.2008457,"lat":36.3613333}},{"type":"Feature","geometry":{"type":"Point","coordinates":[8.7516867,36.9321799,0]},"properties":{"name":"طبرقة 2","styleUrl":"#icon-960-80FF80","styleHash":"-10607f6c","description":"المصدر: الوكالة العقاريّة الصناعيّة<br>الولاية: جندوبة<br>الجهة: الشريطان الوسيط والداخلي<br>المساحة (هك): 15<br>lon: 8.7516867<br>lat: 36.9321799","المصدر":"الوكالة العقاريّة الصناعيّة","الولاية":"جندوبة","الجهة":"الشريطان الوسيط والداخلي","المساحة (هك)":"15.0","lon":8.7516867,"lat":36.9321799}},{"type":"Feature","geometry":{"type":"Point","coordinates":[9.1413736,36.2778952,0]},"properties":{"name":"الكريب","styleUrl":"#icon-960-80FF80","styleHash":"-10607f6c","description":"المصدر: الوكالة العقاريّة الصناعيّة<br>الولاية: سليانة<br>الجهة: الشريطان الوسيط والداخلي<br>المساحة (هك): 15<br>lon: 9.1413736<br>lat: 36.2778952","المصدر":"الوكالة العقاريّة الصناعيّة","الولاية":"سليانة","الجهة":"الشريطان الوسيط والداخلي","المساحة (هك)":"15.0","lon":9.1413736,"lat":36.2778952}},{"type":"Feature","geometry":{"type":"Point","coordinates":[10.2081469,36.3615122,0]},"properties":{"name":"الزريبة 3","styleUrl":"#icon-960-80FF80","styleHash":"-10607f6c","description":"المصدر: الوكالة العقاريّة الصناعيّة<br>الولاية: زغوان<br>الجهة: الشريطان الوسيط والداخلي<br>المساحة (هك): 15<br>lon: 10.2081469<br>lat: 36.3615122","المصدر":"الوكالة العقاريّة الصناعيّة","الولاية":"زغوان","الجهة":"الشريطان الوسيط والداخلي","المساحة (هك)":"15.0","lon":10.2081469,"lat":36.3615122}},{"type":"Feature","geometry":{"type":"Point","coordinates":[9.0241817,33.4936005,0]},"properties":{"name":"القلعة","styleUrl":"#icon-960-80FF80","styleHash":"-10607f6c","description":"المصدر: الوكالة العقاريّة الصناعيّة<br>الولاية: قبلّي<br>الجهة: الشريطان الوسيط والداخلي<br>المساحة (هك): 15<br>lon: 9.0241817<br>lat: 33.4936005","المصدر":"الوكالة العقاريّة الصناعيّة","الولاية":"قبلّي","الجهة":"الشريطان الوسيط والداخلي","المساحة (هك)":"15.0","lon":9.0241817,"lat":33.4936005}},{"type":"Feature","geometry":{"type":"Point","coordinates":[9.3623663,36.1038223,0]},"properties":{"name":"سليانة","styleUrl":"#icon-960-80FF80","styleHash":"-10607f6c","description":"المصدر: الوكالة العقاريّة الصناعيّة<br>الولاية: سليانة<br>الجهة: الشريطان الوسيط والداخلي<br>المساحة (هك): 13<br>lon: 9.3623663<br>lat: 36.1038223","المصدر":"الوكالة العقاريّة الصناعيّة","الولاية":"سليانة","الجهة":"الشريطان الوسيط والداخلي","المساحة (هك)":"13.0","lon":9.3623663,"lat":36.1038223}},{"type":"Feature","geometry":{"type":"Point","coordinates":[10.7374556,35.1299425,0]},"properties":{"name":"الحنشة","styleUrl":"#icon-960-80FF80","styleHash":"-10607f6c","description":"المصدر: الوكالة العقاريّة الصناعيّة<br>الولاية: صفاقس<br>الجهة: الشريطان الوسيط والداخلي<br>المساحة (هك): 12<br>lon: 10.7374556<br>lat: 35.1299425","المصدر":"الوكالة العقاريّة الصناعيّة","الولاية":"صفاقس","الجهة":"الشريطان الوسيط والداخلي","المساحة (هك)":"12.0","lon":10.7374556,"lat":35.1299425}},{"type":"Feature","geometry":{"type":"Point","coordinates":[10.199034100000002,34.5143694,0]},"properties":{"name":"الغريبة","styleUrl":"#icon-960-80FF80","styleHash":"-10607f6c","description":"المصدر: الوكالة العقاريّة الصناعيّة<br>الولاية: صفاقس<br>الجهة: الشريطان الوسيط والداخلي<br>المساحة (هك): 12<br>lon: 10.199034100000002<br>lat: 34.5143694","المصدر":"الوكالة العقاريّة الصناعيّة","الولاية":"صفاقس","الجهة":"الشريطان الوسيط والداخلي","المساحة (هك)":"12.0","lon":10.199034100000002,"lat":34.5143694}},{"type":"Feature","geometry":{"type":"Point","coordinates":[8.4280137,34.3112853,0]},"properties":{"name":"متلوي(القطب)","styleUrl":"#icon-960-80FF80","styleHash":"-10607f6c","description":"المصدر: الخواص و الأقطاب و المركبات<br>الولاية: قفصة<br>الجهة: الشريطان الوسيط والداخلي<br>المساحة (هك): 12<br>lon: 8.4280137<br>lat: 34.3112853","المصدر":"الخواص و الأقطاب و المركبات","الولاية":"قفصة","الجهة":"الشريطان الوسيط والداخلي","المساحة (هك)":"12.0","lon":8.4280137,"lat":34.3112853}},{"type":"Feature","geometry":{"type":"Point","coordinates":[10.104284,35.6959914,0]},"properties":{"name":"القيروان طريق تونس","styleUrl":"#icon-960-80FF80","styleHash":"-10607f6c","description":"المصدر: المجالس الجهويّة والبلديّات<br>الولاية: القيروان<br>الجهة: الشريطان الوسيط والداخلي<br>المساحة (هك): 12<br>lon: 10.104284<br>lat: 35.6959914","المصدر":"المجالس الجهويّة والبلديّات","الولاية":"القيروان","الجهة":"الشريطان الوسيط والداخلي","المساحة (هك)":"12.0","lon":10.104284,"lat":35.6959914}},{"type":"Feature","geometry":{"type":"Point","coordinates":[10.5336337,33.349745,0]},"properties":{"name":"مدنين","styleUrl":"#icon-960-80FF80","styleHash":"-10607f6c","description":"المصدر: المجالس الجهويّة والبلديّات<br>الولاية: مدنين<br>الجهة: الشريطان الوسيط والداخلي<br>المساحة (هك): 12<br>lon: 10.5336337<br>lat: 33.349745","المصدر":"المجالس الجهويّة والبلديّات","الولاية":"مدنين","الجهة":"الشريطان الوسيط والداخلي","المساحة (هك)":"12.0","lon":10.5336337,"lat":33.349745}},{"type":"Feature","geometry":{"type":"Point","coordinates":[10.1435832,36.4115364,0]},"properties":{"name":"زغوان","styleUrl":"#icon-960-80FF80","styleHash":"-10607f6c","description":"المصدر: الوكالة العقاريّة الصناعيّة<br>الولاية: زغوان<br>الجهة: الشريطان الوسيط والداخلي<br>المساحة (هك): 11<br>lon: 10.1435832<br>lat: 36.4115364","المصدر":"الوكالة العقاريّة الصناعيّة","الولاية":"زغوان","الجهة":"الشريطان الوسيط والداخلي","المساحة (هك)":"11.0","lon":10.1435832,"lat":36.4115364}},{"type":"Feature","geometry":{"type":"Point","coordinates":[9.537441600000001,37.0704052,0]},"properties":{"name":"الغزالة","styleUrl":"#icon-960-80FF80","styleHash":"-10607f6c","description":"المصدر: الوكالة العقاريّة الصناعيّة<br>الولاية: بنزرت<br>الجهة: الشريطان الوسيط والداخلي<br>المساحة (هك): 11<br>lon: 9.537441600000001<br>lat: 37.0704052","المصدر":"الوكالة العقاريّة الصناعيّة","الولاية":"بنزرت","الجهة":"الشريطان الوسيط والداخلي","المساحة (هك)":"11.0","lon":9.537441600000001,"lat":37.0704052}},{"type":"Feature","geometry":{"type":"Point","coordinates":[9.5560065,35.3894366,0]},"properties":{"name":"حاجب العيون","styleUrl":"#icon-960-80FF80","styleHash":"-10607f6c","description":"المصدر: الوكالة العقاريّة الصناعيّة<br>الولاية: القيروان<br>الجهة: الشريطان الوسيط والداخلي<br>المساحة (هك): 11<br>lon: 9.5560065<br>lat: 35.3894366","المصدر":"الوكالة العقاريّة الصناعيّة","الولاية":"القيروان","الجهة":"الشريطان الوسيط والداخلي","المساحة (هك)":"11.0","lon":9.5560065,"lat":35.3894366}},{"type":"Feature","geometry":{"type":"Point","coordinates":[9.668854600000001,36.5380426,0]},"properties":{"name":"قبلاّط","styleUrl":"#icon-960-80FF80","styleHash":"-10607f6c","description":"المصدر: الوكالة العقاريّة الصناعيّة<br>الولاية: باجة<br>الجهة: الشريطان الوسيط والداخلي<br>المساحة (هك): 11<br>lon: 9.668854600000001<br>lat: 36.5380426","المصدر":"الوكالة العقاريّة الصناعيّة","الولاية":"باجة","الجهة":"الشريطان الوسيط والداخلي","المساحة (هك)":"11.0","lon":9.668854600000001,"lat":36.5380426}},{"type":"Feature","geometry":{"type":"Point","coordinates":[10.2814608,35.9170217,0]},"properties":{"name":"الكندار","styleUrl":"#icon-960-80FF80","styleHash":"-10607f6c","description":"المصدر: الوكالة العقاريّة الصناعيّة<br>الولاية: سوسة‎‎<br>الجهة: الشريطان الوسيط والداخلي<br>المساحة (هك): 10<br>lon: 10.2814608<br>lat: 35.9170217","المصدر":"الوكالة العقاريّة الصناعيّة","الولاية":"سوسة‎‎","الجهة":"الشريطان الوسيط والداخلي","المساحة (هك)":"10.0","lon":10.2814608,"lat":35.9170217}},{"type":"Feature","geometry":{"type":"Point","coordinates":[8.7096218,36.1572588,0]},"properties":{"name":"الكاف","styleUrl":"#icon-960-80FF80","styleHash":"-10607f6c","description":"المصدر: الوكالة العقاريّة الصناعيّة<br>الولاية: الكاف<br>الجهة: الشريطان الوسيط والداخلي<br>المساحة (هك): 10<br>lon: 8.7096218<br>lat: 36.1572588","المصدر":"الوكالة العقاريّة الصناعيّة","الولاية":"الكاف","الجهة":"الشريطان الوسيط والداخلي","المساحة (هك)":"10.0","lon":8.7096218,"lat":36.1572588}},{"type":"Feature","geometry":{"type":"Point","coordinates":[8.70133,34.3844042,0]},"properties":{"name":"قفصة","styleUrl":"#icon-960-80FF80","styleHash":"-10607f6c","description":"المصدر: الوكالة العقاريّة الصناعيّة<br>الولاية: قفصة<br>الجهة: الشريطان الوسيط والداخلي<br>المساحة (هك): 10<br>lon: 8.70133<br>lat: 34.3844042","المصدر":"الوكالة العقاريّة الصناعيّة","الولاية":"قفصة","الجهة":"الشريطان الوسيط والداخلي","المساحة (هك)":"10.0","lon":8.70133,"lat":34.3844042}},{"type":"Feature","geometry":{"type":"Point","coordinates":[10.1132103,35.6940392,0]},"properties":{"name":"القيروان 1","styleUrl":"#icon-960-80FF80","styleHash":"-10607f6c","description":"المصدر: الوكالة العقاريّة الصناعيّة<br>الولاية: القيروان<br>الجهة: الشريطان الوسيط والداخلي<br>المساحة (هك): 10<br>lon: 10.1132103<br>lat: 35.6940392","المصدر":"الوكالة العقاريّة الصناعيّة","الولاية":"القيروان","الجهة":"الشريطان الوسيط والداخلي","المساحة (هك)":"10.0","lon":10.1132103,"lat":35.6940392}},{"type":"Feature","geometry":{"type":"Point","coordinates":[8.7636929,36.4752179,0]},"properties":{"name":"جندوبة","styleUrl":"#icon-960-80FF80","styleHash":"-10607f6c","description":"المصدر: الوكالة العقاريّة الصناعيّة<br>الولاية: جندوبة<br>الجهة: الشريطان الوسيط والداخلي<br>المساحة (هك): 10<br>lon: 8.7636929<br>lat: 36.4752179","المصدر":"الوكالة العقاريّة الصناعيّة","الولاية":"جندوبة","الجهة":"الشريطان الوسيط والداخلي","المساحة (هك)":"10.0","lon":8.7636929,"lat":36.4752179}},{"type":"Feature","geometry":{"type":"Point","coordinates":[9.3581606,36.100147,0]},"properties":{"name":"سليانة 2","styleUrl":"#icon-960-80FF80","styleHash":"-10607f6c","description":"المصدر: الوكالة العقاريّة الصناعيّة<br>الولاية: سليانة<br>الجهة: الشريطان الوسيط والداخلي<br>المساحة (هك): 10<br>lon: 9.3581606<br>lat: 36.100147","المصدر":"الوكالة العقاريّة الصناعيّة","الولاية":"سليانة","الجهة":"الشريطان الوسيط والداخلي","المساحة (هك)":"10.0","lon":9.3581606,"lat":36.100147}},{"type":"Feature","geometry":{"type":"Point","coordinates":[9.5430794,35.1051905,0]},"properties":{"name":"لسودة (سيدي بوزيد)","styleUrl":"#icon-960-80FF80","styleHash":"-10607f6c","description":"المصدر: الوكالة العقاريّة الصناعيّة<br>الولاية: سيدي بوزيد<br>الجهة: الشريطان الوسيط والداخلي<br>المساحة (هك): 10<br>lon: 9.5430794<br>lat: 35.1051905","المصدر":"الوكالة العقاريّة الصناعيّة","الولاية":"سيدي بوزيد","الجهة":"الشريطان الوسيط والداخلي","المساحة (هك)":"10.0","lon":9.5430794,"lat":35.1051905}},{"type":"Feature","geometry":{"type":"Point","coordinates":[10.4326108,33.3881127,0]},"properties":{"name":"مدنين تاجرة (قســط اول)","styleUrl":"#icon-960-80FF80","styleHash":"-10607f6c","description":"المصدر: الوكالة العقاريّة الصناعيّة<br>الولاية: مدنين<br>الجهة: الشريطان الوسيط والداخلي<br>المساحة (هك): 10<br>lon: 10.4326108<br>lat: 33.3881127","المصدر":"الوكالة العقاريّة الصناعيّة","الولاية":"مدنين","الجهة":"الشريطان الوسيط والداخلي","المساحة (هك)":"10.0","lon":10.4326108,"lat":33.3881127}},{"type":"Feature","geometry":{"type":"Point","coordinates":[10.4791768,32.965568700000006,0]},"properties":{"name":"تطاوين (الخبطة)(قســط اول)","styleUrl":"#icon-960-80FF80","styleHash":"-10607f6c","description":"المصدر: الوكالة العقاريّة الصناعيّة<br>الولاية: تطاوين<br>الجهة: الشريطان الوسيط والداخلي<br>المساحة (هك): 10<br>lon: 10.4791768<br>lat: 32.965568700000006","المصدر":"الوكالة العقاريّة الصناعيّة","الولاية":"تطاوين","الجهة":"الشريطان الوسيط والداخلي","المساحة (هك)":"10.0","lon":10.4791768,"lat":32.965568700000006}},{"type":"Feature","geometry":{"type":"Point","coordinates":[8.627524500000002,36.1078154,0]},"properties":{"name":"كاف واد الرمل","styleUrl":"#icon-960-80FF80","styleHash":"-10607f6c","description":"المصدر: الوكالة العقاريّة الصناعيّة<br>الولاية: الكاف<br>الجهة: الشريطان الوسيط والداخلي<br>المساحة (هك): 10<br>lon: 8.627524500000002<br>lat: 36.1078154","المصدر":"الوكالة العقاريّة الصناعيّة","الولاية":"الكاف","الجهة":"الشريطان الوسيط والداخلي","المساحة (هك)":"10.0","lon":8.627524500000002,"lat":36.1078154}},{"type":"Feature","geometry":{"type":"Point","coordinates":[8.7790888,34.4317062,0]},"properties":{"name":"قفصة","styleUrl":"#icon-960-80FF80","styleHash":"-10607f6c","description":"المصدر: الخواص و الأقطاب و المركبات<br>الولاية: قفصة<br>الجهة: الشريطان الوسيط والداخلي<br>المساحة (هك): 10<br>lon: 8.7790888<br>lat: 34.4317062","المصدر":"الخواص و الأقطاب و المركبات","الولاية":"قفصة","الجهة":"الشريطان الوسيط والداخلي","المساحة (هك)":"10.0","lon":8.7790888,"lat":34.4317062}},{"type":"Feature","geometry":{"type":"Point","coordinates":[9.9118619,36.3862509,0]},"properties":{"name":"الفحص","styleUrl":"#icon-960-80FF80","styleHash":"-10607f6c","description":"المصدر: المجالس الجهويّة والبلديّات<br>الولاية: زغوان<br>الجهة: الشريطان الوسيط والداخلي<br>المساحة (هك): 10<br>lon: 9.9118619<br>lat: 36.3862509","المصدر":"المجالس الجهويّة والبلديّات","الولاية":"زغوان","الجهة":"الشريطان الوسيط والداخلي","المساحة (هك)":"10.0","lon":9.9118619,"lat":36.3862509}},{"type":"Feature","geometry":{"type":"Point","coordinates":[8.7677414,35.2065207,0]},"properties":{"name":"القصرين","styleUrl":"#icon-960-80FF80","styleHash":"-10607f6c","description":"المصدر: الوكالة العقاريّة الصناعيّة<br>الولاية: القصرين<br>الجهة: الشريطان الوسيط والداخلي<br>المساحة (هك): 10<br>lon: 8.7677414<br>lat: 35.2065207","المصدر":"الوكالة العقاريّة الصناعيّة","الولاية":"القصرين","الجهة":"الشريطان الوسيط والداخلي","المساحة (هك)":"10.0","lon":8.7677414,"lat":35.2065207}},{"type":"Feature","geometry":{"type":"Point","coordinates":[9.6326502,36.3527669,0]},"properties":{"name":"بوعرادة","styleUrl":"#icon-960-80FF80","styleHash":"-10607f6c","description":"المصدر: الوكالة العقاريّة الصناعيّة<br>الولاية: سليانة<br>الجهة: الشريطان الوسيط والداخلي<br>المساحة (هك): 9<br>lon: 9.6326502<br>lat: 36.3527669","المصدر":"الوكالة العقاريّة الصناعيّة","الولاية":"سليانة","الجهة":"الشريطان الوسيط والداخلي","المساحة (هك)":"9.0","lon":9.6326502,"lat":36.3527669}},{"type":"Feature","geometry":{"type":"Point","coordinates":[9.3292781,36.3330154,0]},"properties":{"name":"قعفور","styleUrl":"#icon-960-80FF80","styleHash":"-10607f6c","description":"المصدر: الوكالة العقاريّة الصناعيّة<br>الولاية: سليانة<br>الجهة: الشريطان الوسيط والداخلي<br>المساحة (هك): 9<br>lon: 9.3292781<br>lat: 36.3330154","المصدر":"الوكالة العقاريّة الصناعيّة","الولاية":"سليانة","الجهة":"الشريطان الوسيط والداخلي","المساحة (هك)":"9.0","lon":9.3292781,"lat":36.3330154}},{"type":"Feature","geometry":{"type":"Point","coordinates":[8.983064300000002,36.6129272,0]},"properties":{"name":"بوسالم","styleUrl":"#icon-960-80FF80","styleHash":"-10607f6c","description":"المصدر: الوكالة العقاريّة الصناعيّة<br>الولاية: جندوبة<br>الجهة: الشريطان الوسيط والداخلي<br>المساحة (هك): 8<br>lon: 8.983064300000002<br>lat: 36.6129272","المصدر":"الوكالة العقاريّة الصناعيّة","الولاية":"جندوبة","الجهة":"الشريطان الوسيط والداخلي","المساحة (هك)":"8.0","lon":8.983064300000002,"lat":36.6129272}},{"type":"Feature","geometry":{"type":"Point","coordinates":[9.9549944,36.5178136,0]},"properties":{"name":"بئر مشارقة","styleUrl":"#icon-960-80FF80","styleHash":"-10607f6c","description":"المصدر: المجالس الجهويّة والبلديّات<br>الولاية: زغوان<br>الجهة: الشريطان الوسيط والداخلي<br>المساحة (هك): 8<br>lon: 9.9549944<br>lat: 36.5178136","المصدر":"المجالس الجهويّة والبلديّات","الولاية":"زغوان","الجهة":"الشريطان الوسيط والداخلي","المساحة (هك)":"8.0","lon":9.9549944,"lat":36.5178136}},{"type":"Feature","geometry":{"type":"Point","coordinates":[8.4286575,34.314121,0]},"properties":{"name":"المتلوي","styleUrl":"#icon-960-80FF80","styleHash":"-10607f6c","description":"المصدر: المجالس الجهويّة والبلديّات<br>الولاية: قفصة<br>الجهة: الشريطان الوسيط والداخلي<br>المساحة (هك): 8<br>lon: 8.4286575<br>lat: 34.314121","المصدر":"المجالس الجهويّة والبلديّات","الولاية":"قفصة","الجهة":"الشريطان الوسيط والداخلي","المساحة (هك)":"8.0","lon":8.4286575,"lat":34.314121}},{"type":"Feature","geometry":{"type":"Point","coordinates":[8.9526468,33.7080558,0]},"properties":{"name":"قبلّي","styleUrl":"#icon-960-80FF80","styleHash":"-10607f6c","description":"المصدر: الوكالة العقاريّة الصناعيّة<br>الولاية: قبلّي<br>الجهة: الشريطان الوسيط والداخلي<br>المساحة (هك): 7<br>lon: 8.9526468<br>lat: 33.7080558","المصدر":"الوكالة العقاريّة الصناعيّة","الولاية":"قبلّي","الجهة":"الشريطان الوسيط والداخلي","المساحة (هك)":"7.0","lon":8.9526468,"lat":33.7080558}},{"type":"Feature","geometry":{"type":"Point","coordinates":[10.4397376,32.9259713,0]},"properties":{"name":"تطاوين","styleUrl":"#icon-960-80FF80","styleHash":"-10607f6c","description":"المصدر: المجالس الجهويّة والبلديّات<br>الولاية: تطاوين<br>الجهة: الشريطان الوسيط والداخلي<br>المساحة (هك): 6<br>lon: 10.4397376<br>lat: 32.9259713","المصدر":"المجالس الجهويّة والبلديّات","الولاية":"تطاوين","الجهة":"الشريطان الوسيط والداخلي","المساحة (هك)":"6.0","lon":10.4397376,"lat":32.9259713}},{"type":"Feature","geometry":{"type":"Point","coordinates":[9.1137633,35.2243269,0]},"properties":{"name":"سبيطلة (قســط أول)","styleUrl":"#icon-960-80FF80","styleHash":"-10607f6c","description":"المصدر: الوكالة العقاريّة الصناعيّة<br>الولاية: القصرين<br>الجهة: الشريطان الوسيط والداخلي<br>المساحة (هك): 6<br>lon: 9.1137633<br>lat: 35.2243269","المصدر":"الوكالة العقاريّة الصناعيّة","الولاية":"القصرين","الجهة":"الشريطان الوسيط والداخلي","المساحة (هك)":"6.0","lon":9.1137633,"lat":35.2243269}},{"type":"Feature","geometry":{"type":"Point","coordinates":[8.7598621,36.94512,0]},"properties":{"name":"طبرقة 1","styleUrl":"#icon-960-80FF80","styleHash":"-10607f6c","description":"المصدر: الوكالة العقاريّة الصناعيّة<br>الولاية: جندوبة<br>الجهة: الشريطان الوسيط والداخلي<br>المساحة (هك): 5<br>lon: 8.7598621<br>lat: 36.94512","المصدر":"الوكالة العقاريّة الصناعيّة","الولاية":"جندوبة","الجهة":"الشريطان الوسيط والداخلي","المساحة (هك)":"5.0","lon":8.7598621,"lat":36.94512}},{"type":"Feature","geometry":{"type":"Point","coordinates":[9.6057235,36.6558486,0]},"properties":{"name":"مجاز الباب 2","styleUrl":"#icon-960-80FF80","styleHash":"-10607f6c","description":"المصدر: الوكالة العقاريّة الصناعيّة<br>الولاية: باجة<br>الجهة: الشريطان الوسيط والداخلي<br>المساحة (هك): 5<br>lon: 9.6057235<br>lat: 36.6558486","المصدر":"الوكالة العقاريّة الصناعيّة","الولاية":"باجة","الجهة":"الشريطان الوسيط والداخلي","المساحة (هك)":"5.0","lon":9.6057235,"lat":36.6558486}},{"type":"Feature","geometry":{"type":"Point","coordinates":[11.0949235,33.4784103,0]},"properties":{"name":"جرجيس","styleUrl":"#icon-960-80FF80","styleHash":"-10607f6c","description":"المصدر: المجالس الجهويّة والبلديّات<br>الولاية: مدنين<br>الجهة: الشريطان الوسيط والداخلي<br>المساحة (هك): 5<br>lon: 11.0949235<br>lat: 33.4784103","المصدر":"المجالس الجهويّة والبلديّات","الولاية":"مدنين","الجهة":"الشريطان الوسيط والداخلي","المساحة (هك)":"5.0","lon":11.0949235,"lat":33.4784103}},{"type":"Feature","geometry":{"type":"Point","coordinates":[9.1989657,35.8517054,0]},"properties":{"name":"مكثر","styleUrl":"#icon-960-80FF80","styleHash":"-10607f6c","description":"المصدر: الوكالة العقاريّة الصناعيّة<br>الولاية: سليانة<br>الجهة: الشريطان الوسيط والداخلي<br>المساحة (هك): 4<br>lon: 9.1989657<br>lat: 35.8517054","المصدر":"الوكالة العقاريّة الصناعيّة","الولاية":"سليانة","الجهة":"الشريطان الوسيط والداخلي","المساحة (هك)":"4.0","lon":9.1989657,"lat":35.8517054}},{"type":"Feature","geometry":{"type":"Point","coordinates":[10.0074232,33.9827859,0]},"properties":{"name":"المطوية","styleUrl":"#icon-960-80FF80","styleHash":"-10607f6c","description":"المصدر: المجالس الجهويّة والبلديّات<br>الولاية: قابس<br>الجهة: الشريطان الوسيط والداخلي<br>المساحة (هك): 3<br>lon: 10.0074232<br>lat: 33.9827859","المصدر":"المجالس الجهويّة والبلديّات","الولاية":"قابس","الجهة":"الشريطان الوسيط والداخلي","المساحة (هك)":"3.0","lon":10.0074232,"lat":33.9827859}},{"type":"Feature","geometry":{"type":"Point","coordinates":[10.8575425,33.8635169,0]},"properties":{"name":"جربة","styleUrl":"#icon-960-80FF80","styleHash":"-10607f6c","description":"المصدر: المجالس الجهويّة والبلديّات<br>الولاية: مدنين<br>الجهة: الشريطان الوسيط والداخلي<br>المساحة (هك): 3<br>lon: 10.8575425<br>lat: 33.8635169","المصدر":"المجالس الجهويّة والبلديّات","الولاية":"مدنين","الجهة":"الشريطان الوسيط والداخلي","المساحة (هك)":"3.0","lon":10.8575425,"lat":33.8635169}},{"type":"Feature","geometry":{"type":"Point","coordinates":[10.0953008,33.9168559,0]},"properties":{"name":"قابس","styleUrl":"#icon-960-00A800","styleHash":"-53333b0c","description":"المصدر: الوكالة العقاريّة الصناعيّة<br>الولاية: قابس<br>الجهة: الشريط الساحلي<br>المساحة (هك): 300<br>lon: 10.0953008<br>lat: 33.9168559","المصدر":"الوكالة العقاريّة الصناعيّة","الولاية":"قابس","الجهة":"الشريط الساحلي","المساحة (هك)":"300.0","lon":10.0953008,"lat":33.9168559}},{"type":"Feature","geometry":{"type":"Point","coordinates":[10.7382678,34.7177281,0]},"properties":{"name":"سيدي سالم","styleUrl":"#icon-960-00A800","styleHash":"-53333b0c","description":"المصدر: المجالس الجهويّة والبلديّات<br>الولاية: صفاقس<br>الجهة: الشريط الساحلي<br>المساحة (هك): 185<br>lon: 10.7382678<br>lat: 34.7177281","المصدر":"المجالس الجهويّة والبلديّات","الولاية":"صفاقس","الجهة":"الشريط الساحلي","المساحة (هك)":"185.0","lon":10.7382678,"lat":34.7177281}},{"type":"Feature","geometry":{"type":"Point","coordinates":[10.7598141,34.8839839,0]},"properties":{"name":"سيدي صالح","styleUrl":"#icon-960-00A800","styleHash":"-53333b0c","description":"المصدر: المجالس الجهويّة والبلديّات<br>الولاية: صفاقس<br>الجهة: الشريط الساحلي<br>المساحة (هك): 120<br>lon: 10.7598141<br>lat: 34.8839839","المصدر":"المجالس الجهويّة والبلديّات","الولاية":"صفاقس","الجهة":"الشريط الساحلي","المساحة (هك)":"120.0","lon":10.7598141,"lat":34.8839839}},{"type":"Feature","geometry":{"type":"Point","coordinates":[10.771397,34.748443,0]},"properties":{"name":"بودريار 1 + 2","styleUrl":"#icon-960-00A800","styleHash":"-53333b0c","description":"المصدر: الوكالة العقاريّة الصناعيّة<br>الولاية: صفاقس<br>الجهة: الشريط الساحلي<br>المساحة (هك): 112<br>lon: 10.771397<br>lat: 34.748443","المصدر":"الوكالة العقاريّة الصناعيّة","الولاية":"صفاقس","الجهة":"الشريط الساحلي","المساحة (هك)":"112.0","lon":10.771397,"lat":34.748443}},{"type":"Feature","geometry":{"type":"Point","coordinates":[9.9423615,37.2034542,0]},"properties":{"name":"العزيب","styleUrl":"#icon-960-00A800","styleHash":"-53333b0c","description":"المصدر: الخواص و الأقطاب و المركبات<br>الولاية: بنزرت<br>الجهة: الشريط الساحلي<br>المساحة (هك): 112<br>lon: 9.9423615<br>lat: 37.2034542","المصدر":"الخواص و الأقطاب و المركبات","الولاية":"بنزرت","الجهة":"الشريط الساحلي","المساحة (هك)":"112.0","lon":9.9423615,"lat":37.2034542}},{"type":"Feature","geometry":{"type":"Point","coordinates":[10.66872,35.78293,0]},"properties":{"name":"سوسة 1","styleUrl":"#icon-960-00A800","styleHash":"-53333b0c","description":"المصدر: الوكالة العقاريّة الصناعيّة<br>الولاية: سوسة‎‎<br>الجهة: الشريط الساحلي<br>المساحة (هك): 90<br>lon: 10.66872<br>lat: 35.78293","المصدر":"الوكالة العقاريّة الصناعيّة","الولاية":"سوسة‎‎","الجهة":"الشريط الساحلي","المساحة (هك)":"90.0","lon":10.66872,"lat":35.78293}},{"type":"Feature","geometry":{"type":"Point","coordinates":[10.4810787,36.599116,0]},"properties":{"name":"قرمبالية","styleUrl":"#icon-960-00F000","styleHash":"17a954d4","description":"المصدر: الوكالة العقاريّة الصناعيّة<br>الولاية: نابل<br>الجهة: الشريط الساحلي<br>المساحة (هك): 55<br>lon: 10.4810787<br>lat: 36.599116","المصدر":"الوكالة العقاريّة الصناعيّة","الولاية":"نابل","الجهة":"الشريط الساحلي","المساحة (هك)":"55.0","lon":10.4810787,"lat":36.599116}},{"type":"Feature","geometry":{"type":"Point","coordinates":[10.6616819,35.7912848,0]},"properties":{"name":"سوسة 2","styleUrl":"#icon-960-00F000","styleHash":"17a954d4","description":"المصدر: الوكالة العقاريّة الصناعيّة<br>الولاية: سوسة‎‎<br>الجهة: الشريط الساحلي<br>المساحة (هك): 51<br>lon: 10.6616819<br>lat: 35.7912848","المصدر":"الوكالة العقاريّة الصناعيّة","الولاية":"سوسة‎‎","الجهة":"الشريط الساحلي","المساحة (هك)":"51.0","lon":10.6616819,"lat":35.7912848}},{"type":"Feature","geometry":{"type":"Point","coordinates":[10.0019867,37.0679322,0]},"properties":{"name":"أوتيك","styleUrl":"#icon-960-00F000","styleHash":"17a954d4","description":"المصدر: الوكالة العقاريّة الصناعيّة<br>الولاية: بنزرت<br>الجهة: الشريط الساحلي<br>المساحة (هك): 50<br>lon: 10.0019867<br>lat: 37.0679322","المصدر":"الوكالة العقاريّة الصناعيّة","الولاية":"بنزرت","الجهة":"الشريط الساحلي","المساحة (هك)":"50.0","lon":10.0019867,"lat":37.0679322}},{"type":"Feature","geometry":{"type":"Point","coordinates":[10.3917279,36.1096096,0]},"properties":{"name":"النفيضة(القطب)","styleUrl":"#icon-960-00F000","styleHash":"17a954d4","description":"المصدر: الخواص و الأقطاب و المركبات<br>الولاية: سوسة‎‎<br>الجهة: الشريط الساحلي<br>المساحة (هك): 50<br>lon: 10.3917279<br>lat: 36.1096096","المصدر":"الخواص و الأقطاب و المركبات","الولاية":"سوسة‎‎","الجهة":"الشريط الساحلي","المساحة (هك)":"50.0","lon":10.3917279,"lat":36.1096096}},{"type":"Feature","geometry":{"type":"Point","coordinates":[10.7558377,35.7193275,0]},"properties":{"name":"الساحلين(القطب)","styleUrl":"#icon-960-00F000","styleHash":"17a954d4","description":"المصدر: الخواص و الأقطاب و المركبات<br>الولاية: المنتسير<br>الجهة: الشريط الساحلي<br>المساحة (هك): 50<br>lon: 10.7558377<br>lat: 35.7193275","المصدر":"الخواص و الأقطاب و المركبات","الولاية":"المنتسير","الجهة":"الشريط الساحلي","المساحة (هك)":"50.0","lon":10.7558377,"lat":35.7193275}},{"type":"Feature","geometry":{"type":"Point","coordinates":[10.7932022,34.8225244,0]},"properties":{"name":"ساقية الداير","styleUrl":"#icon-960-00F000","styleHash":"17a954d4","description":"المصدر: المجالس الجهويّة والبلديّات<br>الولاية: صفاقس<br>الجهة: الشريط الساحلي<br>المساحة (هك): 50<br>lon: 10.7932022<br>lat: 34.8225244","المصدر":"المجالس الجهويّة والبلديّات","الولاية":"صفاقس","الجهة":"الشريط الساحلي","المساحة (هك)":"50.0","lon":10.7932022,"lat":34.8225244}},{"type":"Feature","geometry":{"type":"Point","coordinates":[9.6829597,37.0440935,0]},"properties":{"name":"ماطر","styleUrl":"#icon-960-00F000","styleHash":"17a954d4","description":"المصدر: الوكالة العقاريّة الصناعيّة<br>الولاية: بنزرت<br>الجهة: الشريط الساحلي<br>المساحة (هك): 47<br>lon: 9.6829597<br>lat: 37.0440935","المصدر":"الوكالة العقاريّة الصناعيّة","الولاية":"بنزرت","الجهة":"الشريط الساحلي","المساحة (هك)":"47.0","lon":9.6829597,"lat":37.0440935}},{"type":"Feature","geometry":{"type":"Point","coordinates":[10.5940786,35.8167041,0]},"properties":{"name":"حمام معروف(القطب)","styleUrl":"#icon-960-00F000","styleHash":"17a954d4","description":"المصدر: الخواص و الأقطاب و المركبات<br>الولاية: سوسة‎‎<br>الجهة: الشريط الساحلي<br>المساحة (هك): 47<br>lon: 10.5940786<br>lat: 35.8167041","المصدر":"الخواص و الأقطاب و المركبات","الولاية":"سوسة‎‎","الجهة":"الشريط الساحلي","المساحة (هك)":"47.0","lon":10.5940786,"lat":35.8167041}},{"type":"Feature","geometry":{"type":"Point","coordinates":[10.7280545,34.6891341,0]},"properties":{"name":"طينة","styleUrl":"#icon-960-00F000","styleHash":"17a954d4","description":"المصدر: الوكالة العقاريّة الصناعيّة<br>الولاية: صفاقس<br>الجهة: الشريط الساحلي<br>المساحة (هك): 42<br>lon: 10.7280545<br>lat: 34.6891341","المصدر":"الوكالة العقاريّة الصناعيّة","الولاية":"صفاقس","الجهة":"الشريط الساحلي","المساحة (هك)":"42.0","lon":10.7280545,"lat":34.6891341}},{"type":"Feature","geometry":{"type":"Point","coordinates":[10.685045300000002,35.3185995,0]},"properties":{"name":"الجمّ","styleUrl":"#icon-960-00F000","styleHash":"17a954d4","description":"المصدر: الوكالة العقاريّة الصناعيّة<br>الولاية: المهديّة<br>الجهة: الشريط الساحلي<br>المساحة (هك): 40<br>lon: 10.685045300000002<br>lat: 35.3185995","المصدر":"الوكالة العقاريّة الصناعيّة","الولاية":"المهديّة","الجهة":"الشريط الساحلي","المساحة (هك)":"40.0","lon":10.685045300000002,"lat":35.3185995}},{"type":"Feature","geometry":{"type":"Point","coordinates":[10.381321000000002,36.1293002,0]},"properties":{"name":"النفيضة 1","styleUrl":"#icon-960-00F000","styleHash":"17a954d4","description":"المصدر: الوكالة العقاريّة الصناعيّة<br>الولاية: سوسة‎‎<br>الجهة: الشريط الساحلي<br>المساحة (هك): 38<br>lon: 10.381321000000002<br>lat: 36.1293002","المصدر":"الوكالة العقاريّة الصناعيّة","الولاية":"سوسة‎‎","الجهة":"الشريط الساحلي","المساحة (هك)":"38.0","lon":10.381321000000002,"lat":36.1293002}},{"type":"Feature","geometry":{"type":"Point","coordinates":[10.3794328,36.128399,0]},"properties":{"name":"النفيضة 2","styleUrl":"#icon-960-38FF38","styleHash":"-44d79f2c","description":"المصدر: الوكالة العقاريّة الصناعيّة<br>الولاية: سوسة‎‎<br>الجهة: الشريط الساحلي<br>المساحة (هك): 37<br>lon: 10.3794328<br>lat: 36.128399","المصدر":"الوكالة العقاريّة الصناعيّة","الولاية":"سوسة‎‎","الجهة":"الشريط الساحلي","المساحة (هك)":"37.0","lon":10.3794328,"lat":36.128399}},{"type":"Feature","geometry":{"type":"Point","coordinates":[10.7111527,36.47082160000001,0]},"properties":{"name":"نابل","styleUrl":"#icon-960-38FF38","styleHash":"-44d79f2c","description":"المصدر: المجالس الجهويّة والبلديّات<br>الولاية: نابل<br>الجهة: الشريط الساحلي<br>المساحة (هك): 35<br>lon: 10.7111527<br>lat: 36.47082160000001","المصدر":"المجالس الجهويّة والبلديّات","الولاية":"نابل","الجهة":"الشريط الساحلي","المساحة (هك)":"35.0","lon":10.7111527,"lat":36.47082160000001}},{"type":"Feature","geometry":{"type":"Point","coordinates":[10.8193567,35.7339151,0]},"properties":{"name":"منستير (طريق خنيس)","styleUrl":"#icon-960-38FF38","styleHash":"-44d79f2c","description":"المصدر: المجالس الجهويّة والبلديّات<br>الولاية: المنتسير<br>الجهة: الشريط الساحلي<br>المساحة (هك): 35<br>lon: 10.8193567<br>lat: 35.7339151","المصدر":"المجالس الجهويّة والبلديّات","الولاية":"المنتسير","الجهة":"الشريط الساحلي","المساحة (هك)":"35.0","lon":10.8193567,"lat":35.7339151}},{"type":"Feature","geometry":{"type":"Point","coordinates":[10.5922803,35.8192003,0]},"properties":{"name":"سوسة(القطب)","styleUrl":"#icon-960-38FF38","styleHash":"-44d79f2c","description":"المصدر: الخواص و الأقطاب و المركبات<br>الولاية: سوسة‎‎<br>الجهة: الشريط الساحلي<br>المساحة (هك): 34<br>lon: 10.5922803<br>lat: 35.8192003","المصدر":"الخواص و الأقطاب و المركبات","الولاية":"سوسة‎‎","الجهة":"الشريط الساحلي","المساحة (هك)":"34.0","lon":10.5922803,"lat":35.8192003}},{"type":"Feature","geometry":{"type":"Point","coordinates":[10.0809568,33.9124053,0]},"properties":{"name":"قابس 2","styleUrl":"#icon-960-38FF38","styleHash":"-44d79f2c","description":"المصدر: الوكالة العقاريّة الصناعيّة<br>الولاية: قابس<br>الجهة: الشريط الساحلي<br>المساحة (هك): 30<br>lon: 10.0809568<br>lat: 33.9124053","المصدر":"الوكالة العقاريّة الصناعيّة","الولاية":"قابس","الجهة":"الشريط الساحلي","المساحة (هك)":"30.0","lon":10.0809568,"lat":33.9124053}},{"type":"Feature","geometry":{"type":"Point","coordinates":[10.685323,35.3186056,0]},"properties":{"name":"الجم","styleUrl":"#icon-960-38FF38","styleHash":"-44d79f2c","description":"المصدر: الوكالة العقاريّة الصناعيّة<br>الولاية: المهديّة<br>الجهة: الشريط الساحلي<br>المساحة (هك): 30<br>lon: 10.685323<br>lat: 35.3186056","المصدر":"الوكالة العقاريّة الصناعيّة","الولاية":"المهديّة","الجهة":"الشريط الساحلي","المساحة (هك)":"30.0","lon":10.685323,"lat":35.3186056}},{"type":"Feature","geometry":{"type":"Point","coordinates":[10.764963,34.8434206,0]},"properties":{"name":"ساقية الزيت","styleUrl":"#icon-960-38FF38","styleHash":"-44d79f2c","description":"المصدر: المجالس الجهويّة والبلديّات<br>الولاية: صفاقس<br>الجهة: الشريط الساحلي<br>المساحة (هك): 30<br>lon: 10.764963<br>lat: 34.8434206","المصدر":"المجالس الجهويّة والبلديّات","الولاية":"صفاقس","الجهة":"الشريط الساحلي","المساحة (هك)":"30.0","lon":10.764963,"lat":34.8434206}},{"type":"Feature","geometry":{"type":"Point","coordinates":[10.5620669,36.5236879,0]},"properties":{"name":"بوعرقوب","styleUrl":"#icon-960-38FF38","styleHash":"-44d79f2c","description":"المصدر: الوكالة العقاريّة الصناعيّة<br>الولاية: نابل<br>الجهة: الشريط الساحلي<br>المساحة (هك): 29<br>lon: 10.5620669<br>lat: 36.5236879","المصدر":"الوكالة العقاريّة الصناعيّة","الولاية":"نابل","الجهة":"الشريط الساحلي","المساحة (هك)":"29.0","lon":10.5620669,"lat":36.5236879}},{"type":"Feature","geometry":{"type":"Point","coordinates":[9.8044056,37.154937,0]},"properties":{"name":"منزل بورقيبة 2","styleUrl":"#icon-960-38FF38","styleHash":"-44d79f2c","description":"المصدر: الوكالة العقاريّة الصناعيّة<br>الولاية: بنزرت<br>الجهة: الشريط الساحلي<br>المساحة (هك): 24<br>lon: 9.8044056<br>lat: 37.154937","المصدر":"الوكالة العقاريّة الصناعيّة","الولاية":"بنزرت","الجهة":"الشريط الساحلي","المساحة (هك)":"24.0","lon":9.8044056,"lat":37.154937}},{"type":"Feature","geometry":{"type":"Point","coordinates":[9.9374827,37.2212523,0]},"properties":{"name":"منزل جميل","styleUrl":"#icon-960-38FF38","styleHash":"-44d79f2c","description":"المصدر: المجالس الجهويّة والبلديّات<br>الولاية: بنزرت<br>الجهة: الشريط الساحلي<br>المساحة (هك): 23<br>lon: 9.9374827<br>lat: 37.2212523","المصدر":"المجالس الجهويّة والبلديّات","الولاية":"بنزرت","الجهة":"الشريط الساحلي","المساحة (هك)":"23.0","lon":9.9374827,"lat":37.2212523}},{"type":"Feature","geometry":{"type":"Point","coordinates":[10.8713433,35.6630674,0]},"properties":{"name":"قصر هلال","styleUrl":"#icon-960-38FF38","styleHash":"-44d79f2c","description":"المصدر: المجالس الجهويّة والبلديّات<br>الولاية: المنتسير<br>الجهة: الشريط الساحلي<br>المساحة (هك): 23<br>lon: 10.8713433<br>lat: 35.6630674","المصدر":"المجالس الجهويّة والبلديّات","الولاية":"المنتسير","الجهة":"الشريط الساحلي","المساحة (هك)":"23.0","lon":10.8713433,"lat":35.6630674}},{"type":"Feature","geometry":{"type":"Point","coordinates":[10.5393566,35.8698243,0]},"properties":{"name":"القلعة الكبرى + توسعة","styleUrl":"#icon-960-38FF38","styleHash":"-44d79f2c","description":"المصدر: الوكالة العقاريّة الصناعيّة<br>الولاية: سوسة‎‎<br>الجهة: الشريط الساحلي<br>المساحة (هك): 22<br>lon: 10.5393566<br>lat: 35.8698243","المصدر":"الوكالة العقاريّة الصناعيّة","الولاية":"سوسة‎‎","الجهة":"الشريط الساحلي","المساحة (هك)":"22.0","lon":10.5393566,"lat":35.8698243}},{"type":"Feature","geometry":{"type":"Point","coordinates":[10.705996,35.4604269,0]},"properties":{"name":"بومرداس","styleUrl":"#icon-960-38FF38","styleHash":"-44d79f2c","description":"المصدر: الوكالة العقاريّة الصناعيّة<br>الولاية: المهديّة<br>الجهة: الشريط الساحلي<br>المساحة (هك): 18<br>lon: 10.705996<br>lat: 35.4604269","المصدر":"الوكالة العقاريّة الصناعيّة","الولاية":"المهديّة","الجهة":"الشريط الساحلي","المساحة (هك)":"18.0","lon":10.705996,"lat":35.4604269}},{"type":"Feature","geometry":{"type":"Point","coordinates":[10.7565499,34.7214491,0]},"properties":{"name":"المنطقة الصناعيّة مدغشقر","styleUrl":"#icon-960-38FF38","styleHash":"-44d79f2c","description":"المصدر: الوكالة العقاريّة الصناعيّة<br>الولاية: صفاقس<br>الجهة: الشريط الساحلي<br>المساحة (هك): 18<br>lon: 10.7565499<br>lat: 34.7214491","المصدر":"الوكالة العقاريّة الصناعيّة","الولاية":"صفاقس","الجهة":"الشريط الساحلي","المساحة (هك)":"18.0","lon":10.7565499,"lat":34.7214491}},{"type":"Feature","geometry":{"type":"Point","coordinates":[10.0105236,37.0640946,0]},"properties":{"name":"أوتيك","styleUrl":"#icon-960-38FF38","styleHash":"-44d79f2c","description":"المصدر: المجالس الجهويّة والبلديّات<br>الولاية: بنزرت<br>الجهة: الشريط الساحلي<br>المساحة (هك): 18<br>lon: 10.0105236<br>lat: 37.0640946","المصدر":"المجالس الجهويّة والبلديّات","الولاية":"بنزرت","الجهة":"الشريط الساحلي","المساحة (هك)":"18.0","lon":10.0105236,"lat":37.0640946}},{"type":"Feature","geometry":{"type":"Point","coordinates":[10.4575895,36.2905602,0]},"properties":{"name":"بوفيشة","styleUrl":"#icon-960-80FF80","styleHash":"-10607f6c","description":"المصدر: الوكالة العقاريّة الصناعيّة<br>الولاية: سوسة‎‎<br>الجهة: الشريط الساحلي<br>المساحة (هك): 17<br>lon: 10.4575895<br>lat: 36.2905602","المصدر":"الوكالة العقاريّة الصناعيّة","الولاية":"سوسة‎‎","الجهة":"الشريط الساحلي","المساحة (هك)":"17.0","lon":10.4575895,"lat":36.2905602}},{"type":"Feature","geometry":{"type":"Point","coordinates":[11.048748,35.478779,0]},"properties":{"name":"المهديّة","styleUrl":"#icon-960-80FF80","styleHash":"-10607f6c","description":"المصدر: الوكالة العقاريّة الصناعيّة<br>الولاية: المهديّة<br>الجهة: الشريط الساحلي<br>المساحة (هك): 17<br>lon: 11.048748<br>lat: 35.478779","المصدر":"الوكالة العقاريّة الصناعيّة","الولاية":"المهديّة","الجهة":"الشريط الساحلي","المساحة (هك)":"17.0","lon":11.048748,"lat":35.478779}},{"type":"Feature","geometry":{"type":"Point","coordinates":[10.8159112,36.5458085,0]},"properties":{"name":"تازركة","styleUrl":"#icon-960-80FF80","styleHash":"-10607f6c","description":"المصدر: الوكالة العقاريّة الصناعيّة<br>الولاية: نابل<br>الجهة: الشريط الساحلي<br>المساحة (هك): 16<br>lon: 10.8159112<br>lat: 36.5458085","المصدر":"الوكالة العقاريّة الصناعيّة","الولاية":"نابل","الجهة":"الشريط الساحلي","المساحة (هك)":"16.0","lon":10.8159112,"lat":36.5458085}},{"type":"Feature","geometry":{"type":"Point","coordinates":[9.8958277,37.2589071,0]},"properties":{"name":"جرزونة","styleUrl":"#icon-960-80FF80","styleHash":"-10607f6c","description":"المصدر: الوكالة العقاريّة الصناعيّة<br>الولاية: بنزرت<br>الجهة: الشريط الساحلي<br>المساحة (هك): 14<br>lon: 9.8958277<br>lat: 37.2589071","المصدر":"الوكالة العقاريّة الصناعيّة","الولاية":"بنزرت","الجهة":"الشريط الساحلي","المساحة (هك)":"14.0","lon":9.8958277,"lat":37.2589071}},{"type":"Feature","geometry":{"type":"Point","coordinates":[10.4838367,36.7001897,0]},"properties":{"name":"سليمان 1","styleUrl":"#icon-960-80FF80","styleHash":"-10607f6c","description":"المصدر: الوكالة العقاريّة الصناعيّة<br>الولاية: نابل<br>الجهة: الشريط الساحلي<br>المساحة (هك): 13<br>lon: 10.4838367<br>lat: 36.7001897","المصدر":"الوكالة العقاريّة الصناعيّة","الولاية":"نابل","الجهة":"الشريط الساحلي","المساحة (هك)":"13.0","lon":10.4838367,"lat":36.7001897}},{"type":"Feature","geometry":{"type":"Point","coordinates":[9.7992343,37.1478565,0]},"properties":{"name":"منزل بورقيبة 1 + توسعة","styleUrl":"#icon-960-80FF80","styleHash":"-10607f6c","description":"المصدر: الوكالة العقاريّة الصناعيّة<br>الولاية: بنزرت<br>الجهة: الشريط الساحلي<br>المساحة (هك): 12<br>lon: 9.7992343<br>lat: 37.1478565","المصدر":"الوكالة العقاريّة الصناعيّة","الولاية":"بنزرت","الجهة":"الشريط الساحلي","المساحة (هك)":"12.0","lon":9.7992343,"lat":37.1478565}},{"type":"Feature","geometry":{"type":"Point","coordinates":[10.7582738,36.4611968,0]},"properties":{"name":"دار شعبان الفهري","styleUrl":"#icon-960-80FF80","styleHash":"-10607f6c","description":"المصدر: المجالس الجهويّة والبلديّات<br>الولاية: نابل<br>الجهة: الشريط الساحلي<br>المساحة (هك): 12<br>lon: 10.7582738<br>lat: 36.4611968","المصدر":"المجالس الجهويّة والبلديّات","الولاية":"نابل","الجهة":"الشريط الساحلي","المساحة (هك)":"12.0","lon":10.7582738,"lat":36.4611968}},{"type":"Feature","geometry":{"type":"Point","coordinates":[11.061434,36.8406339,0]},"properties":{"name":"قليبة","styleUrl":"#icon-960-80FF80","styleHash":"-10607f6c","description":"المصدر: الوكالة العقاريّة الصناعيّة<br>الولاية: نابل<br>الجهة: الشريط الساحلي<br>المساحة (هك): 11<br>lon: 11.061434<br>lat: 36.8406339","المصدر":"الوكالة العقاريّة الصناعيّة","الولاية":"نابل","الجهة":"الشريط الساحلي","المساحة (هك)":"11.0","lon":11.061434,"lat":36.8406339}},{"type":"Feature","geometry":{"type":"Point","coordinates":[10.7640777,35.6308983,0]},"properties":{"name":"جمّال","styleUrl":"#icon-960-80FF80","styleHash":"-10607f6c","description":"المصدر: الوكالة العقاريّة الصناعيّة<br>الولاية: المنتسير<br>الجهة: الشريط الساحلي<br>المساحة (هك): 10<br>lon: 10.7640777<br>lat: 35.6308983","المصدر":"الوكالة العقاريّة الصناعيّة","الولاية":"المنتسير","الجهة":"الشريط الساحلي","المساحة (هك)":"10.0","lon":10.7640777,"lat":35.6308983}},{"type":"Feature","geometry":{"type":"Point","coordinates":[10.4570868,34.5113597,0]},"properties":{"name":"المحرس","styleUrl":"#icon-960-80FF80","styleHash":"-10607f6c","description":"المصدر: الوكالة العقاريّة الصناعيّة<br>الولاية: صفاقس<br>الجهة: الشريط الساحلي<br>المساحة (هك): 10<br>lon: 10.4570868<br>lat: 34.5113597","المصدر":"الوكالة العقاريّة الصناعيّة","الولاية":"صفاقس","الجهة":"الشريط الساحلي","المساحة (هك)":"10.0","lon":10.4570868,"lat":34.5113597}},{"type":"Feature","geometry":{"type":"Point","coordinates":[10.819664,36.5841993,0]},"properties":{"name":"قربة","styleUrl":"#icon-960-80FF80","styleHash":"-10607f6c","description":"المصدر: المجالس الجهويّة والبلديّات<br>الولاية: نابل<br>الجهة: الشريط الساحلي<br>المساحة (هك): 10<br>lon: 10.819664<br>lat: 36.5841993","المصدر":"المجالس الجهويّة والبلديّات","الولاية":"نابل","الجهة":"الشريط الساحلي","المساحة (هك)":"10.0","lon":10.819664,"lat":36.5841993}},{"type":"Feature","geometry":{"type":"Point","coordinates":[10.9480937,36.7268095,0]},"properties":{"name":"منزل حرّ","styleUrl":"#icon-960-80FF80","styleHash":"-10607f6c","description":"المصدر: الوكالة العقاريّة الصناعيّة<br>الولاية: نابل<br>الجهة: الشريط الساحلي<br>المساحة (هك): 8<br>lon: 10.9480937<br>lat: 36.7268095","المصدر":"الوكالة العقاريّة الصناعيّة","الولاية":"نابل","الجهة":"الشريط الساحلي","المساحة (هك)":"8.0","lon":10.9480937,"lat":36.7268095}},{"type":"Feature","geometry":{"type":"Point","coordinates":[10.9143675,35.6287734,0]},"properties":{"name":"مكنين","styleUrl":"#icon-960-80FF80","styleHash":"-10607f6c","description":"المصدر: الوكالة العقاريّة الصناعيّة<br>الولاية: المنتسير<br>الجهة: الشريط الساحلي<br>المساحة (هك): 8<br>lon: 10.9143675<br>lat: 35.6287734","المصدر":"الوكالة العقاريّة الصناعيّة","الولاية":"المنتسير","الجهة":"الشريط الساحلي","المساحة (هك)":"8.0","lon":10.9143675,"lat":35.6287734}},{"type":"Feature","geometry":{"type":"Point","coordinates":[10.8907828,35.0383167,0]},"properties":{"name":"جبنيانة","styleUrl":"#icon-960-80FF80","styleHash":"-10607f6c","description":"المصدر: الوكالة العقاريّة الصناعيّة<br>الولاية: صفاقس<br>الجهة: الشريط الساحلي<br>المساحة (هك): 8<br>lon: 10.8907828<br>lat: 35.0383167","المصدر":"الوكالة العقاريّة الصناعيّة","الولاية":"صفاقس","الجهة":"الشريط الساحلي","المساحة (هك)":"8.0","lon":10.8907828,"lat":35.0383167}},{"type":"Feature","geometry":{"type":"Point","coordinates":[10.7270565,34.7085912,0]},"properties":{"name":"الماو","styleUrl":"#icon-960-80FF80","styleHash":"-10607f6c","description":"المصدر: الوكالة العقاريّة الصناعيّة<br>الولاية: صفاقس<br>الجهة: الشريط الساحلي<br>المساحة (هك): 8<br>lon: 10.7270565<br>lat: 34.7085912","المصدر":"الوكالة العقاريّة الصناعيّة","الولاية":"صفاقس","الجهة":"الشريط الساحلي","المساحة (هك)":"8.0","lon":10.7270565,"lat":34.7085912}},{"type":"Feature","geometry":{"type":"Point","coordinates":[10.817431,36.5820572,0]},"properties":{"name":"قربة","styleUrl":"#icon-960-80FF80","styleHash":"-10607f6c","description":"المصدر: الوكالة العقاريّة الصناعيّة<br>الولاية: نابل<br>الجهة: الشريط الساحلي<br>المساحة (هك): 8<br>lon: 10.817431<br>lat: 36.5820572","المصدر":"الوكالة العقاريّة الصناعيّة","الولاية":"نابل","الجهة":"الشريط الساحلي","المساحة (هك)":"8.0","lon":10.817431,"lat":36.5820572}},{"type":"Feature","geometry":{"type":"Point","coordinates":[10.7460803,34.9361805,0]},"properties":{"name":"الغرابة","styleUrl":"#icon-960-80FF80","styleHash":"-10607f6c","description":"المصدر: المجالس الجهويّة والبلديّات<br>الولاية: صفاقس<br>الجهة: الشريط الساحلي<br>المساحة (هك): 7<br>lon: 10.7460803<br>lat: 34.9361805","المصدر":"المجالس الجهويّة والبلديّات","الولاية":"صفاقس","الجهة":"الشريط الساحلي","المساحة (هك)":"7.0","lon":10.7460803,"lat":34.9361805}},{"type":"Feature","geometry":{"type":"Point","coordinates":[10.790346,35.689448,0]},"properties":{"name":"بمبلة","styleUrl":"#icon-960-80FF80","styleHash":"-10607f6c","description":"المصدر: الوكالة العقاريّة الصناعيّة<br>الولاية: المنتسير<br>الجهة: الشريط الساحلي<br>المساحة (هك): 4<br>lon: 10.790346<br>lat: 35.689448","المصدر":"الوكالة العقاريّة الصناعيّة","الولاية":"المنتسير","الجهة":"الشريط الساحلي","المساحة (هك)":"4.0","lon":10.790346,"lat":35.689448}},{"type":"Feature","geometry":{"type":"Point","coordinates":[10.9731104,35.4138639,0]},"properties":{"name":"قصور الساف","styleUrl":"#icon-960-80FF80","styleHash":"-10607f6c","description":"المصدر: الوكالة العقاريّة الصناعيّة<br>الولاية: المهديّة<br>الجهة: الشريط الساحلي<br>المساحة (هك): 4<br>lon: 10.9731104<br>lat: 35.4138639","المصدر":"الوكالة العقاريّة الصناعيّة","الولاية":"المهديّة","الجهة":"الشريط الساحلي","المساحة (هك)":"4.0","lon":10.9731104,"lat":35.4138639}},{"type":"Feature","geometry":{"type":"Point","coordinates":[10.8307802,35.6664709,0]},"properties":{"name":"بنان","styleUrl":"#icon-960-80FF80","styleHash":"-10607f6c","description":"المصدر: الوكالة العقاريّة الصناعيّة<br>الولاية: المنتسير<br>الجهة: الشريط الساحلي<br>المساحة (هك): 3<br>lon: 10.8307802<br>lat: 35.6664709","المصدر":"الوكالة العقاريّة الصناعيّة","الولاية":"المنتسير","الجهة":"الشريط الساحلي","المساحة (هك)":"3.0","lon":10.8307802,"lat":35.6664709}}]}